name,lat,lng,rating,user_ratings_total,vicinity
Mount Blue,12.9706822,77.6084358,4.3,32,"#28, Magrath Road, Ashok Nagar, Bengaluru"
ANETHA INDUSTRIAL AGENCIES,12.9641511,77.58243259999999,3.7,7,"77, Silver Jubilee Park Road, Nagarathpete, Bengaluru"
OUR STORES - BANGALORE CLUB,12.9675782,77.59715,4.5,15,"10, Sampangi Rama Nagar, Shanthala Nagar, Richmond Town, Bengaluru"
Royalmart Supermarket Richmond Town,12.9629403,77.6031397,4.1,2119,"Madni Emrara, 18/1, Alexander Street, Richmond Town, Bengaluru"
Hussaini Hydro HO- Festo pneumatics,12.9647506,77.581448,4.3,12,"60, Sadar Patrappa Road, Nagarathpete, Bengaluru"
Central Tools and Engineering Stores,12.9648866,77.5807561,4.7,76,"49/2, Sadar Patrappa Road, Bengaluru"
Nilgiris Supermarket,12.9658863,77.61443349999999,3.8,863,"3, Palmgrove Road, Victoria Layout, Bengaluru"
All Saints Stores & Bakery,12.9668154,77.6067963,4.2,1114,"Ground Floor, #126/2, next to Hotel Vellara, Brigade Road, Bengaluru"
Nature's Basket,12.9621275,77.6017103,4.0,635,"Park End, 13, Rhenius Street, Richmond Town, Bengaluru"
SUPER MARKET,12.9728862,77.6074235,3.8,71,"XJF4+5X3, Brigade Road, Bengaluru"
More Supermarket - V V Puram Bengaluru,12.9513151,77.5765805,3.7,1322,"48, Vasavi Temple Street, Parvathipuram, Vishweshwarapura, Basavanagudi, Bengaluru"
Fatima Bakery & Super Market,12.9668815,77.60932559999999,3.9,897,"opp. Narayana Nethralaya, 41, Castle Street, 2nd Block, Ashok Nagar, Bengaluru"
HOPCOMS Cubbon Park Corporation Circle,12.9719954,77.5936226,4.0,10,"Cupboard Park, Corporation Circle, Sampangi Rama Nagara, Bengaluru"
Ratnadeep Supermarket,12.9673471,77.59713789999999,3.2,43,"K.M.Cariappa Road, Richmond Road, Bengaluru"
SLS LUCH HOME,12.9665667,77.5943989,3.0,4,"1st, main srnagar, behind hotel ramanashree, 2, T Nanjundappa Road, Bengaluru"
Woodlands General Stores,12.9658412,77.5946214,2.0,3,"10, 8th Cross Road, Sampangi Rama Nagara, Sampangi Rama Nagar, Bengaluru"
Vegetable,12.9658413,77.5924393,0.0,0,"27, 8th Cross Rd, Sampangi Rama Nagara, 4th Main Road, S.r Naga, Sampangi Rama Nagar, Bengaluru"
Vaibhav Cloth Store,12.9765943,77.5992706,0.0,0,"Shop No 67, near Bus Stand, Kerur, Bengaluru"
JAY MAA LAXMI TRADING,12.9753386,77.5877318,0.0,0,"77, Main Road, Nunegundlapalli, Ambedkar Veedhi, Sampangi Rama Nagar, Bengaluru"
Deepa Enterprises,12.9818187,77.5946251,0.0,0,"Bilpura Madai, Jabalpur"
R K TILES AND SANITARY,12.981887,77.594504,0.0,0,"Vijay Nagar Pachauli Road, Etawah"
Sandilya Producuction,12.981887,77.594504,0.0,0,"Sandilya Production, Manjhauli Dharma Dash"
Jeen Maa Laser Service,12.9818902,77.594504,0.0,0,"Jeen Maa Laser Service, Churi Wala Dhanna, Bengaluru"
Sanjeev Kumar,12.9818906,77.594504,0.0,0,"Asawar, Gulaothi Rod, Bulandshahr"
Neelam Grocery Shop,12.9818909,77.594504,0.0,0,"00, Payagpur Road, Bahraich"
MAULI PROVISION,12.9818922,77.594504,0.0,0,"Shop No 1, Takali"
G.S Works,12.9818922,77.594504,0.0,0,Harichand
Amdadul Store,12.9818922,77.594504,0.0,0,Tarabari
Narnala A P C,12.9818922,77.594504,0.0,0,"K V Akola, 1 P, Akola"
Deepanshu Soni,12.9818922,77.594504,0.0,0,"Sarafa Bazar, Muzaffarnagar"
Pavan Marketing,12.9680065,77.5839941,5.0,1,"C-141, Ganigarpet, Nagarathpete, Bengaluru"
ALANKAR(GIFTS AND COSMETICS),12.9604475,77.59811110000001,3.7,341,"9, 5th Cross Road, Bheemanna Garden, Lakshmiamma Garden, Shanti Nagar, Bengaluru"
Sapna Mini Store,12.9601305,77.5978441,4.0,42,"52/1, 5th Cross Road, Bheemanna Garden, Lakshmiamma Garden, Shanti Nagar, Bengaluru"
Selec Hypermart,12.972784,77.6073412,4.6,362,"54, Monarch Plaza, Brigade Road, Bengaluru"
MahaBazaar Brigade Road,12.9728156,77.6073782,4.4,36,"#57/1 Monarch Plaza Brigade Road, Off, Mahatma Gandhi Road, Bengaluru"
Buymykart,12.9736432,77.60746750000001,3.0,2,"XJF4+FX4, Brigade Road, Bengaluru"
Rajshekar Nivas (Bobby Store),12.9669024,77.58237059999999,4.8,8,"25, Karpur Adam Saheb Lane, Ganigarpet, Nagarathpete, Bengaluru"
Grand super Mart,12.9591602,77.5980141,4.1,232,"16, 5th Cross, Shanthinagar, Lakshmi Road, Bengaluru"
MOTI SUPER MART,12.9657791,77.58278969999999,0.0,0,"29, Nagarathpet Main Road, Bengaluru"
Family Shopping Mart,12.9796958,77.60520559999999,4.1,48,"101, Infantry Road, Tasker Town, Sampangi Rama Nagar, Bengaluru"
Raj lakshmi provision store,12.9663399,77.58196199999999,0.0,0,"near paras jewellers, 935 adsham lane, cross Road, Nagarathpete, Bengaluru"
Food Boutique,12.9794637,77.60593899999999,0.0,0,"17, 92, Enjay Ventures, Kedia Arcade, Ground Floor, Infantry Road, Near-Gem Plaza, Shivaji Nagar, Bengaluru"
Karnataka Co-Operative Oilseeds Growers Federation Limited (KOF),12.9807778,77.6051792,4.7,19,"11, 4th Floor, Blue Cross Chambers, Infantry Road Cross, Bengaluru"
Welcome Mart,12.9595523,77.6015602,5.0,3,"7/1, Shanti Nagar Main Road, Langford Town, Shanti Nagar, Bengaluru"
Fresh Signature,12.985457,77.594492,3.9,274,"PID No-19, Mahanagara Palika;BBMP, 86, 2-86, 3rd stage, 2nd Block Ba, Bruhat, Bengaluru"
Family Shopping Mart Langford Road,12.9597078,77.6019731,4.2,406,"15, Langford Road, Langford Town, Richmond Town, Bengaluru"
RSI Canteen,12.9751709,77.6085837,4.5,548,"XJG5+3C8, Cubbon Road, FM Cariappa Colony, Sivanchetti Gardens, Bengaluru"
Olive Super Market,12.969282,77.6089595,2.0,2,"#35, Markham Road, Ashok Nagar, Bengaluru"
BALAJI PLASTICS,12.970271,77.57954269999999,0.0,0,"1 Balapur Market, Rangaswamy Temple Street, Bengaluru"
ebuy sell rent,12.9642445,77.58122089999999,0.0,0,"K S Lane, Silver Jubilee Park Road, S J, P K, R Market, Bengaluru"
Shree Ramdev Steel Furniture and Steel Hardware Sujalpur Mandi,12.9745735,77.60967839999999,0.0,0,"XJF5+RVF, Mahatma Gandhi Road, Bengaluru"
Industrial Tooling Solutions,12.9631922,77.58157109999999,0.0,0,"4th Floor, 66, Narasimharaja Road, Bengaluru"
The Organic World - Cunningham Road,12.986871,77.59478299999999,4.4,224,"Shah Sultan Complex, Cunningham Road, Vasanth Nagar, Bengaluru"
SAIF ENTERPRISES,12.9654197,77.5802278,5.0,5,"40, Sadar Patrappa Road, Dodpete, Nagarathpete, Bengaluru"
Screw Bazar,12.9649848,77.5803844,5.0,54,"1st Floor, RK Mansion, 124/1, Venkataramana Naik Lane, S.P Road Cross, Kumbarpet, Dodpete, Nagarathpete, Bengaluru"
V.p Industrial Suppliers,12.9649828,77.58032229999999,5.0,22,"1st Floor, Dr, Belagodu Complex, 40/3, Sadar Patrappa Road, Bengaluru"
CLUB - Kenkia Supermarket,12.9848884,77.60267089999999,5.0,1,"Ground Floor, Hazi Masjid, 59, Chandni Chowk Road, Bhattarahalli, Bengaluru"
KENKIA SUPER MARKET,12.9849144,77.6026888,2.7,3,"near Bilal Bakery, 59, Chandni Chowk Road, Shivaji Nagar, Bengaluru"
VIJAY TRADING CORPORATION,12.9600943,77.583797,4.0,54,"2nd ROAD AFTER HDFC BANK, Aswath Lakshmi Complex, 1/1,1st B CROSS, JC Road, Bengaluru"
RB Supermarket,12.9852773,77.6035333,4.0,24,"Chandni Chowk Road, Swamy Shivanandapuram, Shivaji Nagar, Bengaluru"
Food Mall,12.9333505,77.6297774,3.9,147,"Sr. No. 654, 11th Main, 80 Feet Road, 4th Block, Koramangala, Bengaluru"
Safal Daily Fresh by Karnataka Cooperative Oilseeds Growers' Federation,12.944634,77.6199602,4.1,35,"WJV9+VX4, near Koramanga Residency, 80 Feet Road, Koramangala 8th Block, Bengaluru"
National Stores,12.9434152,77.61853289999999,3.7,3,"8th Block, 57, Lakshmi Devi Temple Road, Koramangala 8th Block, Koramangala, Bengaluru"
Nature's Basket,12.9336458,77.62285659999999,4.2,2224,"9, 17th A Main Road, KHB Colony, 5th Block, Koramangala, Bengaluru"
MINI MART,12.9350238,77.6188081,4.2,61,"KHB Colony, Koramangala, Bengaluru"
Reliance Fresh,12.9403664,77.6200313,3.9,2136,"Municipal No. 581/A (Pid No. 67-6-581/A Opp Bethany School Ground, Koramangala 8th Block, Koramangala, Bengaluru"
ESTEEM POWER TRAX PVT LTD,12.9414213,77.6080774,0.0,0,India
Swaraj Hyper Market,12.923326,77.61228969999999,4.0,6077,"opposite swaraj hypermarket, Chocolate Factory Road, Madiwala, Bengaluru"
Vishal Mega Mart,12.9131211,77.62599709999999,4.0,7668,"No. 31/9, Krimson square, Near Central Silk Board, Junction, Hosur Road, Bommanahalli, Bengaluru"
Mangal Infra,12.9523212,77.6400069,3.7,3,"10A/11A, 4TH Floor, Maruti Infotech Center, Intermediate 560071, North Ring Road, ITI Colony, Domlur, Bengaluru"
Ashirwad Supermarket,12.9151706,77.6059697,4.2,4270,"284, 7th Main Road, BTM Layout 2nd Stage, Bengaluru"
More Supermarket - MARUTI NAGAR,12.9215696,77.61382669999999,3.8,3817,"#3, Maruthi Nagar Main Road, BTM 1st Stage, Bengaluru"
Sharana Sharanappa,12.9351965,77.62448069999999,5.0,2,"002, Koramangala, Bengaluru"
Syed Jameel Ahmed,12.9352403,77.624532,3.0,1,"KHB Colony, 4th Block, Koramangala, Bengaluru"
Sowbhagya Traders,12.9350579,77.62323909999999,4.2,4332,"No. 6, 5th Cross Road, 6th Block, Koramangala, Bengaluru"
Maharaja marketing,12.936916,77.62422579999999,1.0,1,"near Koramangala Club Swimming Pool, 17th B Main Road, Bengaluru"
Mahalakshmi Stores,12.9355072,77.6226274,4.5,20,"13, 60 Feet Road, KHB Colony, 6th Block, Koramangala, Bengaluru"
G Mart,12.937142,77.6247542,1.8,15,"6th Block, Koramangala 506, AKR Arcade, Koramangala"
Shree Ganesh Refilling Center,12.9328582,77.6226731,4.5,6,"32, 100 Feet Road KHB Block Koramangala, Jaya Nagar, 1st Block Koramangala, Koramangala, Bengaluru"
Sri Mahalakshmi Super Market,12.9332083,77.6271168,3.9,280,"ph7899337916 441, 8th Main Rd, 4th Block, 5th Block, Koramangala, Bengaluru, Karnataka 560034 ph, Koramangala, Bengaluru"
Family Supermarket,12.931795,77.62339999999999,5.0,2,"near BDA COMPLEX, 70, 7th A Cross Road, 4th Block, Koramangala, Bengaluru"
Mariyas Bakery And Super Store,12.940913,77.62869789999999,4.0,287,"#40, 27th Cross Road, Ashwini Layout, Ejipura, Bengaluru"
Girija Vegetables Shop,12.929195,77.63115239999999,5.0,5,"next to RAHEJA RESIDENCY, 37, 8th C Main Road, Jakasandra Block, Koramangala 3 Block, Koramangala, Bengaluru"
Behtar Enabled Haiwa Home Departmental Store,12.9432025,77.6284721,4.0,24,"WJVH+79Q, Sri Rama Temple Road, Gowda Muniswamy Garden, Ejipura, Bengaluru"
Reliance Fresh,12.942006,77.6174276,3.8,211,"Block, 2Nd Phase,6Th, 496, 2nd Main Road, Stage, BTM Layout, Bengaluru"
DMart Koramangala,12.9321262,77.63443939999999,4.2,6325,"6th Cross Road S.T. Bed Extension, Cauvery Colony, S.T. Bed, 1st Block Koramangala, Koramangala, Bengaluru"
ROYAL CART EJIPURA,12.9437139,77.630279,3.6,9,"4/1, 4th Cross Road, Vivek Nagar, Chandra Reddy Layout, S T Bed Layout, Koramangala, Bengaluru"
Megha Mart,12.9300188,77.6335473,0.0,0,"902, 1st Main Road, Nirguna Mandir Layout, 1st Block Koramangala, Koramangala, Bengaluru"
SNV Veg Fresh,12.944103,77.61804190000001,4.6,11,"386, near pass port office, Mallappa Reddy Layout, Koramangala 8th Block, Koramangala, Bengaluru"
More Supermarket - KORAMANGALA - 2,12.9423145,77.6151206,3.9,2277,"472, Adugodi Main Road, Koramangala 8th Block, Koramangala, Bengaluru"
Spencers,12.9271991,77.63327220000001,3.0,2,"Spencer Retail Limited,NO.06, 7th Main, 80 Feet Road, 1st Block Koramangala, Bengaluru"
MURUGAN M NURSERY,12.9456457,77.61867579999999,3.8,14,"15, Koramangala, Bengaluru"
Xpress Home Needs Supermarket,12.9463324,77.6288237,4.2,542,"#60, 17th Cross Road, Gowda Muniswamy Garden, Ejipura, Bengaluru"
KPN Fresh - Head Office,12.9253835,77.63144799999999,4.5,29,"First Floor, IndiQube Sigma, Plot No 3/B, 3rd Block, Koramangala 1A Block, SBI Colony, Koramangala, Bengaluru"
GANGADHARA D,12.9289027,77.6353316,0.0,0,"1 Block, 2nd Main Road, Koramangala, Bengaluru"
ROSE STORES,12.9237613,77.6193802,4.2,18,"26 4th Cross, Hosur Road, Madiwala, Bengaluru"
YFS meeting point,12.9475034,77.6211807,5.0,2,India
More,12.9346426,77.61130469999999,4.0,1,"21, Hosur Road, Chikku Lakshmaiah Layout, Koramangala, Bengaluru"
Carrymart Supermarket,12.9248616,77.6164101,4.2,531,"WJF8+WHV, 3rd Cross Road, Madiwala New Extension, Maruti Nagar, BTM 1st Stage, Bengaluru"
MOHAMMED UMAR,12.9222009,77.62154810000001,0.0,0,"Ground Floor, Madiwala Vegetable Market, No 46, Madiwala, Bengaluru"
Village Hyper market,12.9328362,77.6101115,4.0,3403,"#1, Bharthi Plaza, 1st cross, SG Palya Main Road, Tavarekere, Ramaiah Garden, Bengaluru"
Royalmart Supermarket St.Johns Woods Apartment,12.92939,77.6110728,4.0,24,"House, Prestige St.johns Woods May Flower Club, Prestige St.Johns Wood, No:80, Saint John's Cross Road, Chikka Adugodi, Bengaluru"
Happy Store,12.9496292,77.6259005,5.0,3,"Fairlands bus stop, 35, 11th Cross, Ejipura Main Road, Viveknagar Further Extension, Vivek Nagar, Bengaluru"
Haseeb Stores,12.9497783,77.6264358,3.8,15,"Shop No. #36, Vivek Nagar Post, Bheemanna Complex, Ejipura Main Road, Gowda Muniswamy Garden, Ejipura, Bengaluru"
Minnus Hyper Market,12.9208592,77.6201528,0.0,0,"Sharif Complex, opp. Madiwala Police Station, 321/3, Hosur Road, Madiwala, Bengaluru"
Sri Murugan Hyper Mart,12.9511432,77.62316129999999,0.0,0,"Gournd Floor, near Viveknagar Police Station, No.428, 11th Main Road, Viveknagar, Ejipura, Bengaluru"
SAVOmart Viveknagar,12.951346,77.6227359,3.5,6,"434 11th Main Rd, 4th cross, Vannarpet Layout, Viveknagar, Ejipura, Bengaluru"
VASU STORE,12.9253958,77.61113379999999,5.0,2,"5th cross, 2nd Main Road, tavarekere, Bengaluru"
Bhagyashree General Store,12.9211673,77.63331289999999,3.3,8,"Venkatapura Main Road, Teacher's Colony, Jakkasandra, 1st Block Koramangala, HSR Layout 5th Sector, Bengaluru"
EKA Shopping Mart,12.9334055,77.60741209999999,5.0,7,"41/4, 1st Main Road, Venkateshwara Extension, S.G. Palya, Bengaluru"
Home Magic Mini Bazar,12.9321537,77.60743409999999,3.5,4,"WJJ4+VX7, SG Palya Main Road, Venkateshwara Layout, S.G. Palya, Bengaluru"
M Mart SUPER MARKET,12.9193322,77.61616339999999,3.0,2,"8th Cross Road, Jai Bheem Nagar, BTM 1st Stage, Bengaluru"
Chakkapan Stores,12.930438,77.606871,4.1,94,"near Falooda Club, Bharathi Layout, S.G. Palya"
Annamma agency,12.9414982,77.6073061,5.0,1,"3, 2nd Main Road, Nanjappa Layout, Adugodi, Bengaluru"
Nandini milk Booth,12.9301868,77.6067362,0.0,0,"5, 3rd Cross Road, Tavarekere, Venkateshwara Layout, S.G. Palya, Bengaluru"
Xpress Home Needs,12.9255802,77.6086426,3.8,497,"WJG5+6FJ, Tavarekere Main Road, Balaji Nagar, S.G. Palya, Bengaluru"
New Sapna Store,12.9185171,77.63220210000001,3.8,2053,"30, 5th Main Road, Teacher's Colony, Jakkasandra, 1st Block Koramangala, Koramangala, Bengaluru"
Prajwal General Store,12.9199033,77.634891,4.6,18,"230/4, 8 TH C CROSS, 3rd Main Road, Venkatapura, Koramangala, Bengaluru"
M R STORE,12.9193729,77.63412389999999,3.7,55,"WJ9M+PJX, Venkatapura, Bengaluru"
Mythri Mart Super Market,12.9220365,77.6107112,4.2,2422,"anjanadri building, buss stop, near Tavarekere Road, 103, Muniyallapa Layout, Cashier Layout, BTM 1st Stage, Bengaluru"
NANDINI MILK DAIRY,12.9066461,77.6308718,3.0,21,"1145, Mangammanapalya Main Road, SBI Colony, Bommanahalli, Bengaluru"
The Eco Store,12.9159137,77.64922159999999,4.2,419,"1018, 13th Cross, 24th Main Rd, 5th Sector, Vanganahalli, 1st Sector, HSR Layout, Bengaluru"
More Supermarket,12.9120328,77.6479554,3.8,1189,"No. 435, BDA Site, 27th Main Road, Sector I, Agara Village, Block Extension, HSR Layout, Bengaluru"
Sri Lakshmi Venkateshwara Provision Store(SLV Provision Store),12.9191269,77.63465459999999,4.2,31,"Old No. 230/242- 38, 3rd Main, Venkatapura New Extn., BG Srikanteshwara, Shani Temple Road, Teacher's Colony, Bengaluru"
Vedavathi provision store,12.9200639,77.6362125,4.0,26,"66, 8th Cross Road, Teacher's Colony, Jakkasandra, 1st Block Koramangala, Koramangala, Bengaluru"
family choice,12.916492,77.61716,4.4,11,"306, Hosur Road, Madiwala, 1st Stage, BTM 1st Stage, Bengaluru"
Sobha Super Market,12.9149795,77.6352539,4.2,1152,"9th Main Road, Sector 6, HSR Layout, Bengaluru"
TOP IN TOWN RETAIL,12.9180977,77.61440689999999,3.9,3140,"Floor 27th, KMS HOME 98/2 Ground, main, 4th Cross Road, BTM 1st Stage, Bengaluru"
NTL Home needs Superm markets,12.9126631,77.6222561,0.0,0,"30/5/14, 6th Cross Road, NGR Layout, Roopena Agrahara, Bommanahalli, Bengaluru"
Sri Hanuman Stores,12.9121154,77.62312279999999,4.3,36,"Sri Hari Homes, 3rd Main Road, NGR Layout, Roopena Agrahara, Bommanahalli, Bengaluru"
My Mark,12.9145651,77.63668880000002,5.0,1,"opposite Bda Complex, 44 17Th Cross 12Th Main Har Layout, opposite Bda Complex, 12th Main Road, Sector 6, HSR Layout, Bengaluru"
V G R Essor,12.912231,77.6327712,5.0,1,"1144, 6th Main Road, 7th Sector, HSR Layout, Bengaluru"
Reliance Fresh,12.9164324,77.60465010000001,3.9,2956,"WJ83+HVC, 100 Feet Ring Road, Vysya Bank Colony, स्टेज 2, BTM Layout, Bengaluru"
Sri madhu provision store,12.9113032,77.6299777,0.0,0,"17, 18th Cross Road, 7th Sector, HSR Layout, Bengaluru"
Kerala Fish,12.9215777,77.6110884,4.3,6,"118, Tavarekere Main Road, Narayan Gowda Layout, 1st Stage, BTM 1st Stage, Bengaluru"
NEW KARNATAKA TRADERS,12.9209634,77.6112863,0.0,0,"WJC6+9G9, Tavarekere Main Road, Narayan Gowda Layout, 1st Stage, BTM 1st Stage, Bengaluru"
Shopping Land Super Market,12.9108759,77.6245374,4.0,462,"135, 3rd Main Road, NGR Layout, Roopena Agrahara, Bommanahalli, Bengaluru"
"Greenfield Marketing, Nilgiris Franchisee",13.0236522,77.5921151,3.8,926,"389, 1, 1st Cross Road, Judges Colony, RT Nagar, Bengaluru"
S M Fresh Mart ( Formerly S M Food Palace),13.0272827,77.6041123,4.1,1881,"Sultanpalya Main Road, Dinnur, Kaval Bairasandra, Bengaluru"
Families Supermarket,13.0492558,77.60389409999999,4.0,2781,"2JX3+PH2, 3rd Cross Road, Vinayaka Layout, Coffee Board Layout, Hebbal Kempapura, Bengaluru"
FAMILIES SUPERMARKET,13.0266406,77.5934844,4.1,611,"near Foodworld, 12/A, 80 Feet Road, HMT Layout, RT Nagar, Bengaluru"
More Supermarket - CIL Layout,13.03927,77.60003669999999,3.9,1279,"No 3/4, Aryan Arcade, Cil Layout, V N Main Road, Guddadahalli, Bengaluru"
DMart RT Nagar,13.0291532,77.6071738,4.0,19114,"KHB Colony Main Road, Hanumanthappa Layout, Sultanpalya, Hebbal, Bengaluru"
Families Supermarket Kanaka Nagar,13.0335073,77.6090614,4.1,1912,"Near RK Palace Auditorium, #13&14, Adarsh Nagar, Near RK Palace Auditorium, KHB Colony Main Road, Kanaka Nagar, Kaval Bairasandra, Bengaluru"
Ruby Food World,13.0201143,77.59956609999999,4.3,97,"near Bank Of India, Adi Kabir Ashram Main Road 14, 11th Cross, near Bank Of India, Thimmaiah Road, RT Nagar, Bengaluru"
Reliance Fresh,13.055345,77.6025811,3.7,2659,"1 & Katha, Cross Bhuvaneshwari Nag House List No.1.Katha. 574/745A, 574, 9th Street, Bengaluru"
Velan's Shop'n'save,13.014543,77.59457600000002,4.3,117,"near G M Temple, #17, 1st Main Road, Matadahalli, RT Nagar, Bengaluru"
Metro traders,13.020615,77.6126033,4.3,6,"30, 1, Shampura Main Road, Shampura, Kaval Bairasandra, Bengaluru"
Easy Bazar,13.0399039,77.6206522,3.9,1639,"96, Vyalikaval HBCS Layout, Nagavara, Bengaluru"
Al ameen store UMAR N,13.0350602,77.62104149999999,3.9,9,"216, Nagavara, Bengaluru"
Nature's Basket,13.0596721,77.5931009,4.1,1484,"Pragathi"" Property No. 2759, next to Hotel Swathi Gardenia, E Block, Bengaluru"
Reliance SMART Bazaar,13.0476146,77.5741948,3.8,15089,"Shop No 52/3, Maruti Arcade, near Trends, Bhadrappa Layout Rd, Bhadrappa Layout, Devinagar, Bengaluru"
Fine Food,13.0599083,77.5876871,4.0,173,"2380, near SBM Bank, E Block, 1st Main Road, Sahakar Nagar, Bengaluru"
Sampoorna Shopping Center,13.0432,77.570517,3.8,378,"near Maruti nilaya, 16, Dollars Colony, near Maruti nilaya, 1st Cross Road, Raj Mahal Vilas 2nd Stage, Bengaluru"
Namma mart nimma choice,13.0345022,77.5968475,0.0,0,"2nd Cross Road, Gundappa Reddy Layout, Bengaluru"
Saraswathi Provision Store,13.0362935,77.59978699999999,3.0,4,"08, 8th Cross Road, CIL Layout, Patel Muniyappa Layout, Sultanpalya, Hebbal, Bengaluru"
Dolly mini mart,13.0351349,77.5997522,2.7,6,"Dolly mini mart, near acaharaya college, Hebbal, Bengaluru"
Families Supermarket,13.0351854,77.6002979,4.1,946,"NRV Complex, 1st and 2nd Cross, Thimmakka Layout, near Acharya College, 16-17, Chamundi Nagar Main Road, Cholanayakanahalli, Hebbal, Bengaluru"
Rose Super Bazaar,13.039162,77.5995975,4.0,1332,"V.Nagenahalli Main Road, RT Nagar, Guddadahalli, Hebbal, Bengaluru"
Sri Krishna Fresh Mart,13.0398148,77.594032,5.0,2,"1/7, Guddadhalli Main Road, Baiyanna Layout, Hebbal, Bengaluru"
Ms Provision Store,13.0338257,77.6034616,3.5,13,"481, 5th Main Road, Seethappa Layout, Chamundi Nagar, Hebbal, Bengaluru"
Stikon mart,13.0349383,77.6040689,4.9,14,"near statebank, 22, 6th Main Road, R. Krishnappa Layout, Patel Muniyappa Layout, Bhuvaneswari nagar, Hebbal, Bengaluru"
Guna Provision Stores,13.0281192,77.60136279999999,4.4,18,"1255, 2nd Cross Road, RT Nagar, Sultanpalya, Hebbal, Bengaluru"
Athif Stores,13.0356889,77.6067114,0.0,0,"No 24, near Sri Ranga Medicals, 1, V, Vishwanath Naganahalli Main Road, Kanaka Nagar, Kanakanagar, Bengaluru"
Watan Foods,13.0336848,77.6079365,4.9,74,"C Block, 1, 1st Cross Road, Kanaka Nagar, Hebbal, Bengaluru"
More Supermarket - RT Nagar CBI Road Bangalore,13.0265886,77.590931,3.9,865,"No. 3/4 Aryan Arcade V Vishwanath Naganahalli Main Road CIL Layout Guddadahalli, RT Nagar, Bengaluru"
Reliance Fresh,13.0304267,77.6079589,3.5,368,"Number 130, Corp Ward, Property Id No. 96 174-146 1st Main Road, Bmp No.146, KHB Colony Main Road, Manorayana Palya, Bengaluru"
Shoppy Mart SMM,13.0462043,77.6034529,4.5,4,"Prestige Misty Waters Tower-4, Nagavara, Bengaluru"
S S VALUE MART,13.0274001,77.6065981,4.2,18,"KHB Colony Main Road, Ranka Nagar, Kaval Bairasandra, Bengaluru"
RK Dry Fruits and Spices,13.0247045,77.5906408,4.8,48,"79/1, SKS Complex, 5th Main Road Ganganagar, post, RT Nagar, Bengaluru"
Mallikarjuna Coconut Shop,13.0246654,77.59028900000001,5.0,7,"Shop No 11, 5th Main Road, Ganga Nagar, RT Nagar, Bengaluru"
Balaji Super Market,13.0254581,77.5882562,3.8,9,"8/22, 1, Bengaluru"
KNIGHT RIDERS,13.0245132,77.58955999999999,0.0,0,"5th Main Road, Ganganager, Ganganagar, Bengaluru"
HIRSE ORGANIC STORE,13.0222338,77.5968934,4.3,11,"298, 17th Cross Road, 2nd Block, RT Nagar, Bengaluru"
Grocery99.com,13.0247512,77.58830809999999,5.0,4,"no.58, 7th Cross Road, Ganganagar, Bengaluru"
Harvest shoppy mart,13.0425602,77.609887,4.5,8,Bengaluru
SAVOmart Kempapura,13.049631,77.60168259999999,3.2,6,"near Apollo Pharmacy, 8/9, Vinayaka Layout, Hebbal Kempapura, Bengaluru"
Annapurna Mart - অন্নপূর্ণা মার্ট,13.0252399,77.58661409999999,4.4,40,"next to Lenskart showroom, 9 7th cross 5th main hebbal, next to Lenskart showroom, market road, Ganganagar, Ganganagar, Bengaluru"
Nasmart,13.0243604,77.5873606,4.6,9,"No 117/26 Nile Towers Ground Floor 4th Main Road Ganganagar Ganganagar, RT Nagar, Bengaluru"
KPN Fresh - RT Nagar,13.021535,77.592435,4.5,185,"Shop No 01, KH Muniswamappa Block, 7th Main Road, RT Nagar, Ganganagar, Bengaluru"
Uma's kitchen gallery,13.0233476,77.5884468,0.0,0,"No:18, 5th Main Road, Ganganagar, Post, RT Nagar, Bengaluru"
Nayan Fruits And Vegetables,13.0434044,77.5836099,4.7,3,"Devinagar Main Road, Bengaluru"
"KPN Fresh - 3rd Main Road, Coffee Board Layout",13.0485319,77.6055667,4.5,78,"Shop No 1651, Ground Floor, near Rama Mandir, 3rd Main Road, Coffee Board Layout, Hebbal Kempapura, Bengaluru"
"Capital Hypermarket,",13.026266,77.60920999999999,4.1,1690,"next to BESCOM office, 2, LR Bande Road, Ambedkar Layout, RT Nagar, Shampura, Kaval Bairasandra, Bengaluru"
MANJULA C,13.0410961,77.58231459999999,5.0,1,"Park View Layout, near Water Tank, 69, 5th Cross Road, Bengaluru"
Hopcoms Stall 63,13.0242488,77.5866087,3.3,3,"100-102, 5th Cross Road, Ganga Nagar Layout, Ganganagar, Bengaluru"
SM FRESH MART,13.0204103,77.5931729,4.1,1516,"329, Taralabalu Marg, Rahmath Nagar, RT Nagar, Bengaluru"
KPN Fresh - LR Bande,13.028226,77.61156199999999,4.7,633,"Nanda Gokula Layout, Plot No 475/3, Shampura Main Road, Kaval Bairasandra, Bengaluru"
Fathima Store,13.0361016,77.6136587,4.6,36,"Zafarulla Layout, 43, Veerannapalya Main Road, Govindapura, Nagavara, Bengaluru"
Ever Green Super Market,13.0413255,77.5807165,4.5,14,"9/10, 3rd Main Road, Bengaluru"
Shopwel Mart,13.0391641,77.6141695,3.9,14,"403, Veeranapalaya Road, Nagavara, Bengaluru"
Galaxy Super Market,13.0413532,77.61371059999999,3.7,93,"near Petrol Bunk, next to Nirmala Matha Church, 82, Arabic College Post, Veerannapalya, Bengaluru"
Mobile network telecom,13.0423735,77.5796167,4.0,108,"272, 5th A Cross Road, RMV, Stage 2, R.M.V. 2nd Stage, Bengaluru"
"KPN Fresh - Coffee Board Layout, Bengaluru",13.0528769,77.6042121,4.6,1352,"near Sri Vinayaka Sunrise School, 13/1, 14th A Cross Road, Gopalappa Layout, Hebbal Kempapura, Byatarayanapura CMC and OG Part"
SKP Fisheries,13.0337683,77.6161204,4.6,19,"14 th cross, SPAV Rashad Nagar, Govindapura Main Road, Mahbub Nagar, Nagavara, Bengaluru"
Family Central,13.0251728,77.6130407,4.0,1639,"44, Shampura Main Road, Chinnanna Layout, C L Ramaiah Layout, Shampura, Kaval Bairasandra, Bengaluru"
madeena supermarket,13.0172681,77.5932055,3.8,9,"2, 1st Main Road, Rahmath Nagar, Ganganagar, Bengaluru"
Loyal City Hyper Market,12.9688298,77.7499974,4.2,2809,"opposite Pushpa Nursing Home, 60 1st A, Whitefield Main Road, Whitefield, Bengaluru"
Loyal City Supermarket,12.9838086,77.74392279999999,4.2,5634,"Shop No 2 & 3, DSR Atrium, ECC Road, Whitefield, Bengaluru"
D Mart,12.9555795,77.7286282,4.2,57711,"252, Varthur Main Road, Patel Narayanswamy Layout, Siddapura, Whitefield, Bengaluru"
a2z Online Deals,12.9698066,77.7499632,0.0,0,"A2Z Online Deals, Whitefield, Bengaluru"
Fresh Signature,12.9707957,77.7504165,3.7,3460,"Cmc Ward No. 17, White Field, Cmc No. 7-5/5, Main Road, Whitefield, Bengaluru"
Kumar Vegetables Shop,12.9696686,77.7519413,5.0,1,"57, 1st A Main Road, Byrappa Layout, Sathya Sai Layout, Whitefield, Bengaluru"
M K FRUIT,12.97332,77.75236079999999,5.0,1,"near Bus Stop, Shop No 78 4th Main 6th Cross, near Bus Stop, Main Road, Whitefield, Bengaluru"
Sri Shakti Stores,12.9689004,77.7546985,5.0,2,"Immadihalli Main Road, Vinayaka Layout, Whitefield, Bengaluru"
Sri Tirumala Vegetable Center,12.9649819,77.7535697,4.0,4,"XQ73+XCW, Unnamed Road, Narayanappa Garden, Whitefield, Bengaluru"
Hello Fresh Mini Mart,12.9682944,77.75671349999999,4.7,33,"Rama Temple, opposite Vega Motors, Immadihalli Main Road, Bengaluru"
Best Krishna provision store,12.9727942,77.7431344,5.0,5,"Ss facility homes, Borewell Road, Naruluali, Whitefield, Bengaluru"
Top In Town Whitefield,12.969169,77.74167779999999,4.0,661,"Borewell Road, Palm Meadows, Nallurhalli, Whitefield, Bengaluru"
ROYAL WHOLESALE MART,12.9676794,77.7579109,4.1,151,"Royal Wholesale Mart, Immadihalli Main Rd, Whitefield Main Road, Immadihalli, Whitefield, Bengaluru"
SV super market,12.9757239,77.74283539999999,3.1,19,"5&6th cross, Pattandur Agrahara ECC Road, Prithvi Layout, Bengaluru"
Bhavani provision store,12.9691453,77.7402505,0.0,0,"34/4 nallurahalli, Borewell Road, Whitefield, Bengaluru"
KPN Fresh - Whitefield,12.96916,77.73959599999999,4.5,410,"Plot No 242/211, Ground Floor Nallurahalli, Krishnarajapura, Hobli, Whitefield, Bengaluru"
Anapurneshwari Stores,12.979635,77.75347719999999,4.8,4,"XQH3+V95, Ambedkar Nagar, Whitefield, Bengaluru"
Loyal World Market,12.9594449,77.7481528,4.3,3261,"62, Ground Floor, Nexus Whitefield Mall, Whitefield Main Road, Prestige Ozone, Whitefield, Bengaluru"
Hometown Supermarket Whitefield,12.9762639,77.7413416,4.2,71,"ECC Road, Pattandur Agrahara, Whitefield, Bengaluru"
Mercados Supermarket,12.9765645,77.7583421,3.7,119,"Ground Floor, MR ASTER, Vijayanagar, Whitefield, Bengaluru"
Fashion feet,12.9692408,77.738861,0.0,0,"opp. KPN FRESH, 1,43/2/5, Borewell Road, Nallurhalli, Whitefield, Bengaluru"
CHETHAN STORES,12.9670206,77.73781679999999,4.7,26,"1, Bengaluru"
LOYAL MART SUPERMARKET-ಲಾಯಲ್ ಮಾರ್ಟ್ ಸೂಪರ್ಮಾರ್ಕೆಟ್,12.9611236,77.74107339999999,4.2,10,"9 GROUND FLOOR, Palm Meadows Resort Road, Whitefield, Bengaluru"
CITY HYPERMARKET,12.979666,77.7575002,4.1,1065,"Nagar, Pattandur Agrahara Arunodaya Road, Ambedkar Nagar, Whitefield, Bengaluru"
GSK YADAV,12.982669,77.7493267,0.0,0,"Badri Shop, Prasanth Layout, Bengaluru"
DMart Ready,12.969204,77.73589919999999,4.2,99,"Ground Floor, Swathi Sapphire Commercial Complex, Building No. 61/6 Borewell Road, Nallurahalli Main Road, Whitefield, Bengaluru"
Vishal Mega Mart,12.98371,77.75169559999999,3.9,4619,"Hope Farm Junction, ITPL Main Road,Whitefield, Channasandra, Bengaluru"
S.B Super Market,12.9843454,77.7491763,3.8,50,"XPMX+PMM, Prasanth Layout, Prasanth Extension, Bengaluru"
"KPN Fresh - Chennasandra, KR Puram",12.982221,77.757711,4.7,304,"216/09, Pattandur Agrahara, Shop No 9, Ground Floor BBMP No 1966, Krishnarajapuram, Channasandra, Bengaluru"
Prime Mart,12.9843649,77.74920540000001,5.0,2,"PMR OYO Building, behind Orbis restaurant, Prasanth Layout, Prasanth Extension, Whitefield, Bengaluru"
SUNSHINE SUPERMARKET,12.9843678,77.7491971,5.0,2,"ORBIS TOWER, 2ND FLOOR, PRASHANT EXTENSION, HOPE FARM JUNCTION WHITEFIELD, KADUGODI, BANGALORE,Mahad"
SLV SUPER MART,12.967176,77.7652732,5.0,1,"gayatri gopala nilaya, Immadihalli, Whitefield, Bengaluru"
Carrymart hypermarket,12.9722653,77.73414319999999,4.1,623,"18, Nallurahalli Main Road, Palm Meadows, Nallurhalli, Whitefield, Bengaluru"
DNR Super Mart,12.9582097,77.7391598,5.0,2,"Ground Floor, DNR ATMOSPHERE, 231/66, R Narayanapura, Ramagondanahalli, Bengaluru"
Top In Town,12.96993,77.7662123,4.1,895,"Immadihalli main road, nagondanahalli, Whitefield, Bengaluru"
M/s. HARISH ENTERPRISES,12.9821055,77.76254580000001,3.8,5,"XQJ7+R2V, A K Gopalan Colony, Channasandra, Bengaluru"
Sri Renuka Yallamma Devi Super market,12.9511624,77.7575652,0.0,0,Sorahunase
Slv Home Needs Super Market,12.9820568,77.733487,4.1,902,"107, Pattandur Agrahara Village Main Road, KIADB Export Promotion Industrial Area, Whitefield, Bengaluru"
RCM WONDER WORLD,12.9694532,77.7711491,4.6,19,"Immadihalli, Whitefield, Bengaluru"
Green City Supermarket,12.9783238,77.7696464,3.8,210,"107/2, Channasandra, Bengaluru"
Sri Basaveshwara Provision,12.9800502,77.7688677,3.7,24,"Channasandra, Bengaluru"
The Organic World - Whitefield,12.9566842,77.7320357,4.4,99,"Ground floor, No.66, Miraya Rose, Varthur Main Road, Whitefield, Bengaluru"
Sanjana Fruits & Vegetables,12.9830175,77.7684227,3.8,10,"opp. Karnatakabank, chennasandra Chennasandra, Kadugodi, Bengaluru"
Mohammed Garage,12.9476731,77.75569,5.0,2,"Mainroad, Varthur"
Sri Lakshmi Venkateshwara Provision Store,12.9571269,77.7726077,0.0,0,Ajagondanahalli
RR Mart,12.9568913,77.7738248,5.0,1,"Ajagondanahalli Ajagondanahalli, Hoskote"
Vegitable Business,12.9503755,77.7690211,5.0,3,"Ramanna Building, Valepura"
FRESHCO SUPER MARKET,12.9148849,77.5968595,4.1,656,"3rd Phase, J. P. Nagar, Bengaluru"
Reliance Smart Bazaar,12.9171476,77.5924233,4.0,16154,"Ward No - 57, Salapuria Gateway , A Block, J.P. Nagar, 2nd Stage, near Ragigudda, 45, 41st Cross Road, Jayanagara 9th Block, Jayanagar, Bengaluru"
Patanjali Store,12.9189991,77.5860348,4.1,518,"8, Aurobindo Marg, 5T Block, Vishya Bank Colony, 1st Phase, J. P. Nagar, Bengaluru"
M. K. Ahmed Bazaar,12.9204033,77.59341069999999,4.1,3051,"Shanti Park Building, 1/01 26th Main, 39th Cross Road, Putlanpalya, Jayanagara 9th Block, Jayanagar, Bengaluru"
MK Home Needs,12.8905455,77.62029679999999,4.1,430,"44, 3rd Cross Road, Royal Shelters, Maruthi Layout, Bommanahalli, Bengaluru"
DMart Garuda Mall,12.9287609,77.59122099999999,4.2,39084,"Ground Floor, Sri Garuda Swagath Mall, 65 A 78, Tilak Nagar Main Road, Tilak Nagar, Bengaluru"
Homeneeds Supermarket,12.910587,77.6064325,3.9,4484,"No. 52, Reva Heights, 14th Cross Road, 7th Main Road, BTM Layout 2nd Stage, Bengaluru"
Swaraj Supermarket,12.9142844,77.61273,3.8,1269,"#364, 3rd Cross Road, BTM 2nd Stage, Kuvempu Nagar, Bengaluru"
Srinivas Shops,12.9108792,77.606466,2.3,3,"66, BTM Layout 2nd Stage, Bengaluru"
"KPN Fresh - Tavarekere, BTM Layout",12.9188659,77.6103495,4.6,526,"1021, 6th Main Road, Aicobo Nagar, Tavarekere, BTM 1st Stage, Bengaluru"
AYSHA Home Needs,12.9093461,77.61112299999999,4.0,202,"16th Main Road, 7th Cross Road, Lakshmi Layout, EWS Colony, Stage 2, Bengaluru"
Super Market,12.9106541,77.606402,3.8,4,"WJ64+7H6, NS Palya, Banashankari 2nd Stage, BTM Layout, Bengaluru"
HARSHITHA SUPER MARKET,12.9124314,77.6147848,3.8,56,"BTM 2nd Stage, Kuvempu Nagar, Stage 2, Bengaluru"
Adishwar Supermarket,12.9087336,77.6107103,5.0,1,"380, 10th Cross Road, Vijaya Bank Layout, Bilekahalli, Bengaluru"
Fresh Signature,12.9163482,77.6046468,3.3,57,"CPR Tower, 100 Feet Ring Road, BTM Layout 2nd Stage, Bengaluru"
C CLUB TRADERS,12.9210536,77.6108383,3.8,5,"31, 16th Main Road, Tavarekere, Bengaluru"
Sri Ramakrishna Departmental Stores,12.9103887,77.6038093,0.0,0,"413, BTM Layout, Bengaluru"
SLV RICE CARNAR,12.9089824,77.6045953,5.0,1,"154, BTM Layout, Bengaluru"
Food Palace,12.9174058,77.60316859999999,4.0,1010,"beside Food Palace, 60, 1st B Cross Road, KEB Colony, Mico Layout, BTM 1st Stage, Bengaluru"
Family Super Market,12.9173744,77.6028699,4.2,471,"No.32-, 33, 1st B Cross Road, Jayanagar 3rd Block East, BTM 1st Stage, Bengaluru"
Tendukheda,12.9188722,77.60380549999999,0.0,0,"34, 8th B Main Road, New Gurappana Palya, 1st Stage, BTM 1st Stage, Bengaluru"
Behtar Enabled BTM Stage 2,12.9064463,77.6114228,4.2,19,"131, 20th Cross Road, EWS Colony, Stage 2, BTM Layout, Bengaluru"
Kwik mart,12.9126732,77.6011252,4.9,8,"BLOCK-C, BTM Layout 2nd Stage, BTM Layout, Bengaluru"
Spar Hypermarket,12.907769,77.6011043,4.2,5003,"Lower Ground Floor, Vega City Mall, 172/1, Srinivas Industrial Estate, Bannerghatta Road, Dollar Layout, 3rd Phase, J. P. Nagar, Bengaluru"
Tokari Vegetable Fruits and Grains,12.902452,77.60910419999999,4.2,91,"No 19, Anugraha Layout, Ramanashree Enclave, Bilekahalli, Bengaluru"
Easy Buy Supermarkets,12.9043053,77.6024425,3.7,10,"14, Purva Heights Road, Bilekahalli, Bengaluru"
7 Days Market | Fruits Vegetables Supermarket Grocery,12.9034882,77.6022325,3.2,10,"B D 2/173, M Rd, NS Palya, BTM Layout, Bengaluru"
Greens and Groceries,12.9010526,77.6111009,4.6,5,"Krishna Nilayam, 1st Cross Road, Phase 2, Anugraha Layout, Ramanashree Enclave, Bilekahalli, Bengaluru"
Madeena beef stall,12.9259293,77.6036436,4.3,24,"play ground, opp. lili, 40, Good cross, Bismillahnagar, S.G. Palya, Bengaluru"
SPAR Corporate Office (Max Hypermarket),12.9248078,77.6016988,5.0,2,"Floor No: 7, Indiqube “ARCADE, SUBRAMANYA ARCADE, Max Hypermarkets India Pvt Ltd No: 12/2, Tower A, Bannerghatta Road, OLd Gurappanapalya, BTM 1st Stage, Bengaluru"
Joe Super Market,12.9204213,77.59737179999999,3.8,34,"No. 1385, 39, South, East End A Main Road, Jayanagara 9th Block, Jayanagar, Bengaluru"
Sri Raghavendra Mini Mart,12.9262912,77.60193939999999,0.0,0,"28, Tavarekere, 4th Cross Road, Balaji Nagar, S.G. Palya, Bengaluru"
Kunchum Foods Supermarket,12.9156533,77.59518600000001,4.5,67,"1947, 28th Main, 9th Block, 3rd Phase, Jayanagar, Bengaluru"
HRK STORE,12.9270894,77.60329449999999,4.2,25,"5th Cross Road, Mosque Rd, #6/72, Bannerghatta Road, Bismillahnagar, S.G. Palya, Bengaluru"
siddeshwara Traders,12.8995297,77.6077964,5.0,2,"21, Someswar Layout, Ramanashree Enclave, Bilekahalli, Bengaluru"
Annapoorna Rice Traders,12.9058275,77.62271179999999,4.2,17,"Virat Nagar, Bommanahalli, Bengaluru"
Muzammil Ahmed Chiken Shop,12.8992066,77.6096244,5.0,1,"85, Someshwara Layout, Bengaluru"
More Supermarket Gayatrinagar,12.9990472,77.5601939,3.7,298,"XHX6+J38, Tharasu Road, Maruthi Extension, Rajajinagar, Bengaluru"
Go Organico,13.0068979,77.5710404,4.7,19,"249, Ground Floor Between 16th and, 17th Cross Road, Sampige Road, Malleshwaram, Bengaluru"
Reliance Fresh,13.0068057,77.564622,3.5,92,"Ward No. 7, Emami Nest, Shop Unit No. 001 Municipal No. 36/2, 16Th Cross, 8Th Main Bmp, 10th Main Road, Malleshwaram, Bengaluru"
Save More Supermarket - SESHADRIPURAM,12.9935419,77.5768105,3.9,702,"31, 1st Main Road, Seshadripuram, Bengaluru"
METRO Cash & Carry - Yeshwantpur,13.0145751,77.5550944,4.2,25895,"Ward No.9, Industrial Suburbs, Survey No. 26/3, A Block, Subramanyanagar,2 State, Rajajinagar, Bengaluru"
Pneumec,13.0017818,77.5530856,4.7,315,"No. 139/4, 1st Floor, 1st Main, Doctor Rajkumar Road, 1st Block, Rajajinagar, Bengaluru"
More Supermarket - Jayamahal,12.9997717,77.5993681,3.9,1576,"Jaymahal Store, 11, 1st Main Road, Jayamahal Extension, Jayamahal, Bengaluru"
Spar Hypermarket,12.991797,77.57043689999999,4.1,8353,"Malleshwaram, Bengaluru"
Light Metals,13.0029084,77.5478212,4.3,73,"7/B,Ground Floor, 11th C Cross Road, West of Chord Road 2nd Stage, Mahalakshmipuram, Bengaluru"
Kwality Big Bazaar,13.0284919,77.5715567,4.0,507,"51, 80 Feet Road, Mathikere, Bengaluru"
M F FRUIT MERCHANT,13.0048795,77.5776762,0.0,0,"14th Criss Road Vylikaval, Sadjashivji Nagar, Kodandarampura, Malleshwaram, Bengaluru"
Namdhari Fresh Vyalikaval,13.003419,77.5782742,4.2,93,"13, near Canara Bank C, 1, 2nd Main Road, Vyalikaval, Malleshwaram, Bengaluru"
Vinay Super Saver,13.0021946,77.57217419999999,4.2,46,"near Canara Bank, 81, Preksha Building, 10 & 11 Cross, near Canara Bank, 1st Main Road, Malleshwaram, Bengaluru"
Mohan Bhandar Supermart,13.0019951,77.5707529,3.9,188,"No 119/1, Srinidhi Complex, near Sampige Road, 11th cross, Malleshwaram, Bengaluru"
GIRIRAM FOODS,13.0032194,77.56940949999999,4.9,22,"116/3, Margosa Road, Malleshwaram, Bengaluru"
HOPCOMS,13.00647,77.5822264,5.0,1,"Janata Bazar, Kempe Gowda Road, Sadashiva Nagar, Gandhi Nagar, Bengaluru"
Future Mart,12.9997716,77.5771515,0.0,0,"10, 2nd Main Road, Vyalikaval, Bengaluru"
Behtar Supermarket,12.9988896,77.5765811,3.7,73,"XHXG+HJ4, 2nd Main Road, HN Layout, Guttahalli, Bengaluru"
Future mart,12.9979618,77.5784066,5.0,1,"No 27, pg halli, Bengaluru"
DMart Malleshwaram,12.997324,77.57414399999999,3.9,68,"165, CHIDANANDA SQUARE, COCONUT AVENUE, 5th Cross Road, Malleshwaram, Bengaluru"
GoHappy Hypermarket,13.004952,77.56540989999999,4.3,175,"Between 13th and 15th cross, 8th Main Road, Malleshwaram, Bengaluru"
Reliance SMART Bazaar,12.9971006,77.5737467,3.9,866,"No 166, Housuja'S Mall Coconut Avenue Rd, 5th Cross Road, Malleshwaram, Bengaluru"
More Supermarket,12.9995522,77.58175849999999,3.9,896,"3363,3364, G/F, 4th Main Road, 2nd Stage, Gayatrinagar, Rajajinagar, Bengaluru"
S L N Stores,12.9964521,77.5755856,4.7,30,"No 20, near Bike N Toys, D T Street, Pipeline Road, Malleshwaram, Bengaluru"
Magneto Medical Centre,12.9982051,77.5671385,3.0,2,"36, 6th Main, 7th Cross, Malleshwaram, Bengaluru"
Paradise General Store,12.9978657,77.58412969999999,4.3,3,"Nandhini Deluxe, Kumarapark West, Seshadripuram, Bengaluru"
SK Provision Store,13.0007524,77.5632311,4.7,7,"1, 1st Main Gandhi Grama, Srirampura, Bengaluru"
Heshikart,12.992595,77.5761873,5.0,29,"No 166/2 J Lingaiah Road, 1st Main Road, Kumara Park West, Seshadripuram, Bengaluru"
Yogesh Fruit Shop,12.9961375,77.5646091,5.0,2,"1, 4th Main Road, Srirampura, Bengaluru"
Sri Manjunatha Banana & fresh fruit,13.0005471,77.5605295,4.8,12,"3572/32, 1st Cross Road, Gayatrinagar, Gayathri Nagara, Bengaluru"
Harish Upper,12.9999124,77.5603114,5.0,1,"No 11, Main Road, Gayatri Nagar, Bengaluru"
S N Fruits And Vegetables Stall,12.995201,77.56377839999999,0.0,0,"No1358 3rd Main Road, 3rd Cross Road, Nagappa Block, Lakshminarayanapuram, Srirampura, Bengaluru"
S K Fresh Mart,12.9920548,77.56780669999999,0.0,0,"No 20/4, Kranti Kavi Saravanan Road, Subhashnagar, Srirampura, Bengaluru"
GANESH TRADERS,13.0101818,77.5582759,4.0,2,"243, 4th Main Road, Milk Colony, Subramanyanagar,2 State, Malleshwaram, Bengaluru"
Kareem Store,12.9913018,77.5677463,4.9,8,"Shop No:#1054, 5th Main Road, Srirampura, Bengaluru"
KPN Fresh - Rajajinagar 2nd Stage,13.00534,77.55761199999999,4.6,144,"A Block, Plot No 2388/A & 2361/31, Ground Floor, near East West Public School, 12th Main Road, 2nd Stage, Rajajinagar, Bengaluru"
NSV Banana Mandi,12.9987392,77.559393,4.6,48,"7th Cross Road, Gayatrinagar, Rajajinagar, Bengaluru"
Peekay Mart,13.005235,77.593902,4.1,996,"52, JC Nagar 2nd Main Road, Sharada Colony, Munireddypalya, Jayamahal, Bengaluru"
Sri Suresh Provision Stores,13.0012914,77.5567246,3.9,39,"2H24+GM9, 10th Main Road, Gayatrinagar, Rajajinagar, Bengaluru"
Sunday Bazaar,13.0250866,77.57187379999999,2.8,4,"2HGC+2PQ, Ashwath Nagar, Devasandra Layout, Bengaluru"
Ayath Fruits Mr. Irfan Pasha,13.0157144,77.5918111,3.3,3,"33, 3rd Main Road, Rahmath Nagar, RT Nagar, Bengaluru"
ishtamart,13.0122714,77.5560644,4.9,27,"22nd floor, World Trade Center, BRIGADE GATEWAY, Campus, Malleshwaram, Bengaluru"
Parrot - Rathore Marketing,12.9913625,77.56255,4.6,45,"30, 13th Cross Road, Lakshminarayanapuram, Bengaluru"
CHALUKYA SUPERMARKET,12.9871286,77.5784765,4.1,105,"near shivananda circle, 12/6, Hare Krishna Road, Madhava Nagar, Gandhi Nagar, Bengaluru"
Gofresh,13.0109747,77.5550185,3.7,41,"Orion Mall, BRIGADE GATEWAY, 26/1, Doctor Rajkumar Road, West, Malleshwaram, Bengaluru"
New Corner Store,13.0105435,77.5951072,4.1,55,"186, JC Nagar Main Road, Devara Jeevanahalli, Bengaluru"
Aslam Pasha,13.0087389,77.5542103,0.0,0,"52, Rajajinagar, Bengaluru"
The Organic World - Sanjaynagar,13.0268181,77.5793046,4.9,12,"No 131/A, 80 Feet Road, RMV 2nd Stage, Ashwath Nagar, Bengaluru"
SVR MART,13.0109854,77.5968888,5.0,1,"29/1 PG ROAD JC NAGAR BANGALORE 560006, Bengaluru"
Vardhaman Traders - The Kirana Shop,13.0219295,77.55885239999999,4.1,17,"459/6, Triveni Main Road, Kamla Nehru. Extension, Yeswanthpur, Bengaluru"
Flavors,12.9920441,77.5917624,3.8,10,"40, 8th Main Road, 7th Cross, Vasanth Nagar, Bengaluru"
Reliance SMART Bazaar,13.0124606,77.5531093,3.8,611,"Ward No 14, adjacent Shell Petrol Bunk, No 5 & 6, Chord Road, Industrial Suburb, Rajajinagar, Bengaluru"
Patanjali Shop,12.9775087,77.6383823,4.2,365,"555, 9th A Main Road, Stage 2, Hoysala Nagar, Indiranagar, Bengaluru"
MK Retail Supermarket,12.9786832,77.6445956,4.2,6728,"734, Chinmaya Mission Hospital Road, Indiranagar, Bengaluru"
Karanataka Store,12.9716729,77.6318819,0.0,0,"XJCJ+MQ6, Jogupalya Road, Someshvarapura Layout, Jogupalya, Bengaluru"
Fresh Buy,12.972154,77.655367,5.0,1,"No: 1098/1, Shri Shamanna Complex, 1st A Cross, 2nd Main, Behind Durga Temple, Sishu Griha School Road, Bhoomi Reddy Colony, New Tippasandra, Bengaluru"
More Supermarket - Tippasandra (New) Bangalore,12.9715799,77.6556359,3.9,2473,"opp. to Durga Temple, New Thippasandra Main Road, Beml Gate, HAL 3rd Stage, New Tippasandra, Bengaluru"
More Supermarket - DOMLUR,12.9595778,77.6383627,4.0,2985,"296, DSR Ridge, 7th Cross Road, Domlur I Stage, 1st Stage, Domlur, Bengaluru"
More Supermarket - SM Bengaluru Airport Road,12.9587681,77.6543441,3.6,99,"Surya Chambers, 6, Wind Tunnel Road, Murugeshpalya, Kaveri Nagar, Bengaluru"
Spar Hypermarket,12.99282,77.6613679,3.9,1531,"3rd Floor, Gopalan Signature Mall, Old Madras Road, Nagavarapalya, C V Raman Nagar, Bengaluru"
Mano Supermarket,12.9592968,77.64469319999999,4.4,17,"XJ5V+PV8, HAL Old Airport Road, Kodihalli, Bengaluru"
Organic Mandya,12.9775704,77.64214520000002,4.7,997,"676, 9th A Main Road, Defence Colony, Indiranagar, Bengaluru"
BRYT BAZAAR,12.9820326,77.63946729999999,3.8,4,"21, 7TH CROSS, 2ND A MAIN, BINAMANGALA , HOYSALA NAGAR, 1ST STAGE, Indiranagar, Bengaluru"
Nature's Basket,12.9783126,77.6451532,3.9,99,"Ward No. 80, Ward Name, Ground Floor, 723, C.M.H. Main Road 1st Binnamangala Stage, Hoysala Nagar, Indiranagar, Bengaluru"
KPN Fresh - Indiranagar,12.9778965,77.6361403,4.6,498,"242, 13th Cross Road, Stage 2, Hoysala Nagar, Indiranagar, Bengaluru"
Prabhav-GBP,12.9820678,77.64636569999999,0.0,0,"Somewhere, Bengaluru"
SRK SUPER MARKET,12.9719692,77.6421628,4.3,252,"441, 9th Main Road, HAL 2nd Stage, Indiranagar, Bengaluru"
Shivam Agency,12.9813935,77.6337235,4.3,92,"opposite 6th Mile Customs, 4&5/1, 17th F Cross Road, Binnamangala, Hoysala Nagar, Indiranagar, Bengaluru"
Green Mart,12.9728701,77.63503279999999,4.0,6,"3256, 13th Cross Road, HAL 2nd Stage, Indiranagar, Bengaluru"
go green asia outlet,12.9705723,77.6392242,4.7,3,"944, 11th Main Road, HAL 2nd Stage, Appareddipalya, Indiranagar, Bengaluru"
SRI BALAJI VENTURES,12.973045,77.6346616,4.2,5,"41, 15th Cross Road, Eshwara Layout, Indiranagar, Bengaluru"
VK Mini mart,12.9728213,77.6347992,4.8,4,"6th Main Thimma, Hanumaiah Reddy Road, 2nd Stage, Indiranagar, Bengaluru"
Safa Super Bazar,12.9727883,77.6348085,4.4,15,"90, 6th Main, Thimma Reddy Road, Near-New Shanti Sagar Hotel, Indiranagar, Bengaluru"
Ratnadeep Supermarket,12.9700043,77.639882,4.2,1385,"XJCQ+2X2, 12th Main Road, HAL 2nd Stage, Doopanahalli, Indiranagar, Bengaluru"
H K G N VEGETABLE STORES,12.9774506,77.6317224,3.9,20,"11/1 Lakshmipuram, 1st Main Road, Halasuru, Bengaluru"
The Organic World - Indiranagar,12.9704614,77.64509129999999,4.4,339,"12th Main, 7th Cross Road, HAL 2nd Stage, Indiranagar, Bengaluru"
Vishal Mega Mart,12.9723628,77.6487877,3.9,924,"806/1, New Thippasandra Main Road, HAL 3rd Stage, Stage 3, New Tippasandra, Bengaluru"
M H Grand Mart,12.9761112,77.6305381,4.4,30,"Grand Mart, M H, Halasuru, Bengaluru"
GNANI MART,12.972531,77.649874,4.3,9,"SHOP NO 1, Narayana Reddy Complex, NO 30, New Thippasandra Main Road, New Tippasandra, Bengaluru"
MAHATMANE,12.978569,77.6298114,4.8,18,"opp. Metro Pillar No 104, 21st Cross Road, Halasuru, laksmipuram, Bengaluru"
Nanjundeswara Super Market,12.9677533,77.6391785,4.0,11,"XJ9Q+4M3, 13th B Main Road, Channakesahava Nagar, HAL 2nd Stage, Doopanahalli, Indiranagar, Bengaluru"
M S RICE TRADERS,12.9680126,77.6445576,4.6,40,"XJ9V+6R3, 2nd Cross Road, HAL 2nd Stage, Indiranagar, Bengaluru"
Reliance Fresh,12.9732546,77.65112359999999,3.7,1614,"XMF2+8C5, 6th Main Road, Puttappa Colony, New Tippasandra, Bengaluru"
Xx,12.9677343,77.64546469999999,3.8,16,"XJ9W+35W, 14th Main Road, Indiranagar, Bengaluru"
Naturix,12.9720601,77.6511459,4.0,1,"1830, 2nd Main Road, HAL 3rd Stage, Indiranagar, Bengaluru"
Vinayaka Stores,12.9734065,77.651997,4.3,4,"XMF2+9Q9, 3rd Main Road, HAL 3rd Stage, New Tippasandra, Bengaluru"
Mohan Store,12.9745384,77.65246499999999,3.7,11,"5th Cross Road, opposite, Church Street, HAL 3rd Stage, New Tippasandra, Bengaluru"
Bhoomi Rice Traders,12.9716415,77.65145319999999,4.3,53,"1855, 4th Main Road, Hal, HAL 3rd Stage, Stage 3, New Tippasandra, Bengaluru"
Patanjali shree Ramdev Store,12.9698057,77.63089459999999,3.9,245,"sumeshwaraura Authority of India, 33/2, 6th Cross Road, Cambridge Layout, Bengaluru"
Supermarket,12.9697514,77.6303621,0.0,0,"7th Cross Road, Domlur, Bengaluru"
CITY SUPER MART,12.9755389,77.6272455,4.0,6,"1st Main Rd, Temple Tree Apartment Road, Eshwara Layout, Indiranagar, Bengaluru"
Food Corner Departmental store,12.9651936,77.64417999999999,3.8,25,"No:2318, KM plaza, 2317, 16th B Main Road, HAL 2nd Stage, Kodihalli, Bengaluru"
Veera's mart,12.9758088,77.6549567,4.7,16,"904 ,1st main, 1st Cross Road, 1st Block, HAL 3rd Stage, New Tippasandra, Bengaluru"
Sagar Super Bazar,12.9644366,77.6356739,4.2,354,"3, Professor U R Rao Road, 3rd Phase, BDA Colony, Domlur Village, Domlur, Bengaluru"
TOP In Town Super Market,12.9679683,77.6517113,4.0,255,"near NAL Quarters Scientist Apartment, 1301, 10th Main Road, Jeevan Bima Nagar, Bengaluru"
New ragam stores,12.9702465,77.6539789,0.0,0,"oppo, 6th Main Road, LIC Colony, New Tippasandra, Bengaluru"
Fresh 'N' More Supermarket,12.9703248,77.6543562,4.1,470,"Near Balamurgan Temple HAL 3rd Stage, 15, 6th Main Road, Puttappa layout, Jeevan Bima Nagar, Bengaluru"
Nilgiris Supermarket,12.9725132,77.6260269,4.3,19,"9/1, Cambridge Cross Road, Halasuru, Bengaluru"
SLV STORE (Babu),12.9627162,77.6365146,4.3,7,"XJ7P+3JJ, BDA Colony, Domlur, Bengaluru"
Vedika Rice Traders,12.9695586,77.6550177,4.3,7,"2 10 Th Sector, 7th Main Road, LIC Colony, HAL 3rd Stage, Jeevan Bima Nagar, Bengaluru"
Family Mall,12.9586996,77.6382479,4.0,940,"Near-Srinidhi Sagar Deluxe, 304, 7th Cross Road, Domlur, Bengaluru"
LITTLE MART,12.961648,77.6372856,4.6,16,India
WASIM FRUIT SHOP,12.9753074,77.6233742,5.0,1,"near ULSOOR MARKET, BAZAR STREET, near ULSOOR MARKET, Ulsoor Road, Bengaluru"
CEEKAY SUPERMARKET ll,12.9621097,77.6469034,4.0,28,"No.128, 5th Phase, HAL 2nd Stage, Kodihalli, Bengaluru"
Ramdas Stores,12.9753387,77.6229965,3.8,20,"138, Bazaar Street, Halasuru, Someshwarpura"
SADAF STORE,12.9686672,77.6253311,4.5,17,"Gowthamapuram, Jogupalya, Bengaluru"
Ceekay Supermarket,12.9603606,77.63634909999999,4.2,872,"38, 1st Main Road, Domlur, Bengaluru"
Freshpik,12.9735618,77.6205177,3.9,115,"Trinity Circle, 4th Floor, 1 MG Mall, Sivanchetti Gardens, Bengaluru"
Sagar Super Bazaar,12.9579244,77.6448309,4.2,42,"XJ5V+5W8, Kodihalli, Bengaluru"
New top in town supermarket,12.956462,77.6380816,3.0,6,"Victoria II Apartment, Patel Ram Reddy Road, Bengaluru"
FRESH VEGETABLE,12.9627024,77.6569138,0.0,0,"near Durga, Maheshwaramma Temple Road, Murugeshpalya, Murugesh Palya, Bengaluru"
